{
"type": "FeatureCollection",
"name": "neighborhoods",
"crs": { "type": "name", "properties": { "name": "urn:ogc:def:crs:OGC:1.3:CRS84" } },
"features": [
{ "type": "Feature", "properties": { "id": 0, "Label": "Saint Joseph" }, "geometry": { "type": "Point", "coordinates": [ -90.283954999625848, 47.903097035561942 ] } },
{ "type": "Feature", "properties": { "id": 1, "Label": "Tower Grove" }, "geometry": { "type": "Point", "coordinates": [ -90.276761106810596, 47.896382735601009 ] } },
{ "type": "Feature", "properties": { "id": 2, "Label": "Jefferson Avenue" }, "geometry": { "type": "Point", "coordinates": [ -90.405771584630855, 47.919403192609892 ] } },
{ "type": "Feature", "properties": { "id": 3, "Label": "Reid Park" }, "geometry": { "type": "Point", "coordinates": [ -90.352536777797951, 47.980791077966884 ] } },
{ "type": "Feature", "properties": { "id": 4, "Label": "Russel Manor" }, "geometry": { "type": "Point", "coordinates": [ -90.648445568932175, 47.896862328455342 ] } },
{ "type": "Feature", "properties": { "id": 5, "Label": "Pine Bluff" }, "geometry": { "type": "Point", "coordinates": [ -90.088760707905223, 47.886311285659623 ] } },
{ "type": "Feature", "properties": { "id": 6, "Label": "Clifton Heights" }, "geometry": { "type": "Point", "coordinates": [ -90.149316788619274, 47.808537735571598 ] } },
{ "type": "Feature", "properties": { "id": 7, "Label": "Downtown" }, "geometry": { "type": "Point", "coordinates": [ -90.169332307436079, 47.900699071306107 ] } },
{ "type": "Feature", "properties": { "id": 8, "Label": "Wesley Heights" }, "geometry": { "type": "Point", "coordinates": [ -90.338646874579808, 47.870013675708663 ] } },
{ "type": "Feature", "properties": { "id": 9, "Label": "Benton Park West" }, "geometry": { "type": "Point", "coordinates": [ -90.45325127721155, 47.92563789971647 ] } },
{ "type": "Feature", "properties": { "id": 10, "Label": "West End" }, "geometry": { "type": "Point", "coordinates": [ -90.613435290564595, 47.956331842394953 ] } },
{ "type": "Feature", "properties": { "id": 11, "Label": "Benton Park" }, "geometry": { "type": "Point", "coordinates": [ -90.421118555970068, 47.947219578162283 ] } },
{ "type": "Feature", "properties": { "id": 12, "Label": "Hickory Ridge" }, "geometry": { "type": "Point", "coordinates": [ -90.180842535940499, 47.840270371641864 ] } },
{ "type": "Feature", "properties": { "id": 13, "Label": "Camp Clifton" }, "geometry": { "type": "Point", "coordinates": [ -90.670962644707288, 47.961990787058895 ] } },
{ "type": "Feature", "properties": { "id": 14, "Label": "Greenfield" }, "geometry": { "type": "Point", "coordinates": [ -90.691608925823715, 47.915086856920716 ] } },
{ "type": "Feature", "properties": { "id": 15, "Label": "Poplar Springs" }, "geometry": { "type": "Point", "coordinates": [ -90.575067862216571, 47.932831792531729 ] } },
{ "type": "Feature", "properties": { "id": 16, "Label": "Wilmore Historical District" }, "geometry": { "type": "Point", "coordinates": [ -90.382751127622029, 47.892545992766188 ] } },
{ "type": "Feature", "properties": { "id": 17, "Label": "College Hills" }, "geometry": { "type": "Point", "coordinates": [ -90.220648742851594, 47.928995049696923 ] } },
{ "type": "Feature", "properties": { "id": 18, "Label": "Midtown" }, "geometry": { "type": "Point", "coordinates": [ -90.131444471942416, 47.858974492961572 ] } },
{ "type": "Feature", "properties": { "id": 19, "Label": "Wesley Heights" }, "geometry": { "type": "Point", "coordinates": [ -90.283954999625848, 47.936668535366543 ] } },
{ "type": "Feature", "properties": { "id": 20, "Label": "Regiment Boulevard Financial District" }, "geometry": { "type": "Point", "coordinates": [ -90.206055349118017, 47.888867221521842 ] } },
{ "type": "Feature", "properties": { "id": 21, "Label": "Deer Park" }, "geometry": { "type": "Point", "coordinates": [ -90.089719893613918, 47.834994850243994 ] } },
{ "type": "Feature", "properties": { "id": 22, "Label": "Historic South End" }, "geometry": { "type": "Point", "coordinates": [ -90.228964254228146, 47.843596325888697 ] } },
{ "type": "Feature", "properties": { "id": 23, "Label": "Cherry" }, "geometry": { "type": "Point", "coordinates": [ -90.302179528091159, 47.872403092883431 ] } },
{ "type": "Feature", "properties": { "id": 24, "Label": "Brewery Town" }, "geometry": { "type": "Point", "coordinates": [ -90.167026747271123, 47.872128092061537 ] } },
{ "type": "Feature", "properties": { "id": 25, "Label": "Point Breeze" }, "geometry": { "type": "Point", "coordinates": [ -90.38083275620464, 47.949137949579679 ] } },
{ "type": "Feature", "properties": { "id": 26, "Label": "Belmont" }, "geometry": { "type": "Point", "coordinates": [ -90.493091791986345, 47.941863965251699 ] } },
{ "type": "Feature", "properties": { "id": 27, "Label": "Mint Hill" }, "geometry": { "type": "Point", "coordinates": [ -90.533441904053788, 47.948207214310337 ] } },
{ "type": "Feature", "properties": { "id": 28, "Label": "Brighton Heights" }, "geometry": { "type": "Point", "coordinates": [ -90.610597181504772, 47.912688832895022 ] } },
{ "type": "Feature", "properties": { "id": 29, "Label": "Garden Court" }, "geometry": { "type": "Point", "coordinates": [ -90.512981626546861, 47.910222013816657 ] } },
{ "type": "Feature", "properties": { "id": 30, "Label": "Cascade Ranch" }, "geometry": { "type": "Point", "coordinates": [ -90.534782062451129, 47.874801057155182 ] } },
{ "type": "Feature", "properties": { "id": 31, "Label": "Ridgemont Village" }, "geometry": { "type": "Point", "coordinates": [ -90.141515921883766, 47.918444006901176 ] } },
{ "type": "Feature", "properties": { "id": 32, "Label": "Ravenwood" }, "geometry": { "type": "Point", "coordinates": [ -90.41824099884397, 47.890627621348784 ] } },
{ "type": "Feature", "properties": { "id": 33, "Label": "Mint Hill" }, "geometry": { "type": "Point", "coordinates": [ -90.339587770730503, 47.95057672814275 ] } },
{ "type": "Feature", "properties": { "id": 34, "Label": "Stonehaven" }, "geometry": { "type": "Point", "coordinates": [ -90.03025037967447, 47.827800957428721 ] } },
{ "type": "Feature", "properties": { "id": 35, "Label": "Canary Hills" }, "geometry": { "type": "Point", "coordinates": [ -90.46715946998772, 47.892545992766188 ] } },
{ "type": "Feature", "properties": { "id": 36, "Label": "Cloverleaf Acres" }, "geometry": { "type": "Point", "coordinates": [ -90.359730670613217, 47.924678714007747 ] } },
{ "type": "Feature", "properties": { "id": 37, "Label": "Piper Glen" }, "geometry": { "type": "Point", "coordinates": [ -90.543894326683784, 47.913648078357653 ] } },
{ "type": "Feature", "properties": { "id": 38, "Label": "Carmel Village" }, "geometry": { "type": "Point", "coordinates": [ -90.133548488350542, 47.887810013345387 ] } }
]
}
